Address ID,Is Depot,group,Adsress alias,Address,Member ID,First name,Last name,E-mail,Phone,Latitude,Longitude,Curbside latitude,Curbside longitude,Priority,Sequence #,Address stop type,Customer PO,Invoice NO,Reference NO,Order NO,Weight,Cost,Revenue,Cube,Pieces,Account NO,Time window start,Time window end,Time window start 2,Time window end 2,Service time,Custom data,Notes
,TRUE,,,"3634 W Market St, Fairlawn, OH 44333",,,,,,41.13576226,-81.62931383,,,,,,,,,,,,,,,,,,,,,,
,,,,"512 Florida Pl, Barberton, OH 44203",,,,,,41.00367151,-81.59846105,,,,,,,,,,,,,,,,7:30,7:40,8:00,8:10,0:05,,
,,,,"512 Florida Pl, Barberton, OH 44203",,,,,,41.00367151,-81.59846105,,,,,,,,,,,,,,,,8:30,8:40,8:50,9:00,0:02,,Take invoice
,,,,"3495 Purdue St, Cuyahoga Falls, OH 44221",,,,,,41.1629715,-81.47904968,,,,,,,,,,,,,,,,9:00,9:15,9:30,9:45,0:05,,
,,,,"1659 Hibbard Dr, Stow, OH 44224",,,,,,41.19450599,-81.44335158,,,,,,,,,,,,,,,,10:00,10:15,10:30,10:45,0:05,,Check-in at arrival
,,,,"2705 N River Rd, Stow, OH 44224",,,,,,41.14524078,-81.4102478,,,,,,,,,,,,,,,,11:00,11:15,11:30,11:45,0:05,,
,,,,"10159 Bissell Dr, Twinsburg, OH 44087",,,,,,41.34004211,-81.4212265,,,,,,,,,,,,,,,,12:00,12:15,12:30,12:45,0:05,,
